[
	{
		"number": 1,
		"name": "福州德为实业有限公司",
		"addres": "福建省福州市长乐区湖南镇仙富村仙昙路8号",
		"city": "【福建省】",
		"lng": 119.66201,
		"lat": 25.976561
	},
	{
		"number": 2,
		"name": "福建省长乐市华阳经编织造厂",
		"addres": "长乐市金峰镇华阳村",
		"city": "【福建省】",
		"lng": 119.61105,
		"lat": 25.96071
	},
	{
		"number": 3,
		"name": "福建卡冠纤维科技有限公司",
		"addres": "长乐市航空港工业集中区启动区（湖南片段）",
		"city": "【福建省】",
		"lng": 119.684593,
		"lat": 25.973269
	},
	{
		"number": 4,
		"name": "长乐恒申合纤科技有限公司",
		"addres": "福建省长乐市滨海工业区",
		"city": "【福建省】",
		"lng": 119.58915,
		"lat": 25.88564
	},
	{
		"number": 5,
		"name": "福建省鑫东华实业有限公司",
		"addres": "长乐市空港工业区（文岭片段）",
		"city": "【福建省】",
		"lng": 119.68872,
		"lat": 25.9811
	},
	{
		"number": 6,
		"name": "福建唐源合纤科技有限公司",
		"addres": "长乐市航空港工业集中区启动区(湖南镇)",
		"city": "【福建省】",
		"lng": 119.67963,
		"lat": 25.970372
	},
	{
		"number": 7,
		"name": "长乐市亚邦纺织化纤有限公司",
		"addres": "长乐市文岭镇阜山村（福建省长乐市顺亚针织有限公司内）",
		"city": "【福建省】",
		"lng": 119.63866,
		"lat": 26.00169
	},
	{
		"number": 8,
		"name": "福建万鸿纺织有限公司",
		"addres": "长乐市航空港工业集中区启动区（文岭镇）",
		"city": "【福建省】",
		"lng": 119.68244,
		"lat": 25.97722
	},
	{
		"number": 9,
		"name": "福建景丰科技有限公司",
		"addres": "长乐市漳港街道漳湖路699号",
		"city": "【福建省】",
		"lng": 119.64097,
		"lat": 25.92748
	},
	{
		"number": 10,
		"name": "福建省长乐市永大纺织有限公司",
		"addres": "福州市滨海工业区（长乐市文武砂片段）",
		"city": "【福建省】",
		"lng": 119.580414,
		"lat": 25.849247
	},
	{
		"number": 11,
		"name": "福建新华威化纤染织有限公司",
		"addres": "长乐市潭头镇曹朱工业区574号",
		"city": "【福建省】",
		"lng": 119.615835,
		"lat": 26.013197
	},
	{
		"number": 12,
		"name": "福建中发织造有限公司",
		"addres": "福州市滨海工业区长乐区江田片段（福州市长乐区凯捷纺织有限公司内）",
		"city": "【福建省】",
		"lng": 119.57353,
		"lat": 25.85152
	},
	{
		"number": 13,
		"name": "福建佳亿化纤有限公司",
		"addres": "福州滨海工业区(松下镇首祉路段)",
		"city": "【福建省】",
		"lng": 119.60636,
		"lat": 25.77444
	},
	{
		"number": 14,
		"name": "福建省长乐市山力化纤有限公司",
		"addres": "福建省长乐市文武砂镇东海东岱村",
		"city": "【福建省】",
		"lng": 119.57373,
		"lat": 25.86674
	},
	{
		"number": 15,
		"name": "福建省长乐市创造者锦纶实业有限公司",
		"addres": "长乐市漳兴工业区",
		"city": "【福建省】",
		"lng": 119.62208,
		"lat": 25.92005
	},
	{
		"number": 16,
		"name": "福建省长乐市峰华合成纤维有限公司",
		"addres": "长乐市两港工业区",
		"city": "【福建省】",
		"lng": 119.5736,
		"lat": 25.8631
	},
	{
		"number": 17,
		"name": "福建省长乐市力拓锦纶有限公司",
		"addres": "长乐市金峰民营投资区",
		"city": "【福建省】",
		"lng": 119.61112,
		"lat": 25.97903
	},
	{
		"number": 18,
		"name": "福州华凤纺织有限公司",
		"addres": "福州滨海工业区(文武砂段)",
		"city": "【福建省】",
		"lng": 119.56945,
		"lat": 25.85813
	},
	{
		"number": 19,
		"name": "长乐力源锦纶实业有限公司",
		"addres": "长乐市金峰工业区漳兴片区",
		"city": "【福建省】",
		"lng": 119.60217,
		"lat": 25.93293
	},
	{
		"number": 20,
		"name": "福建金港实业有限公司",
		"addres": "福州长乐国际机场路漳港段",
		"city": "【福建省】",
		"lng": 119.59804,
		"lat": 25.93785
	},
	{
		"number": 21,
		"name": "福建省长乐市鑫城化纤有限公司",
		"addres": "长乐市漳港两港公路百户路段",
		"city": "【福建省】",
		"lng": 119.618699,
		"lat": 25.916939
	},
	{
		"number": 22,
		"name": "福建省金纶高纤股份有限公司",
		"addres": "福建省长乐市滨海工业区",
		"city": "【福建省】",
		"lng": 119.57299,
		"lat": 25.83091
	},
	{
		"number": 23,
		"name": "福州振华化纤有限公司",
		"addres": "福州市滨海工业区（古槐片段）",
		"city": "【福建省】",
		"lng": 119.56539,
		"lat": 25.84933
	},
	{
		"number": 24,
		"name": "福建省长乐市聚隆化纤有限公司",
		"addres": "福州市长乐区文武砂镇东海村22号",
		"city": "【福建省】",
		"lng": 119.575699,
		"lat": 25.861856
	},
	{
		"number": 25,
		"name": "长乐力恒锦纶科技有限公司",
		"addres": "福建省长乐市滨海工业区",
		"city": "【福建省】",
		"lng": 119.56607,
		"lat": 25.84693
	},
	{
		"number": 26,
		"name": "福建锦江科技有限公司",
		"addres": "福州市长乐区空港工业区（湖南镇马山片区）",
		"city": "【福建省】",
		"lng": 119.67877,
		"lat": 25.95825
	},
	{
		"number": 27,
		"name": "福建省宏鑫化纤实业有限公司",
		"addres": "长乐市湖南镇仙宅村",
		"city": "【福建省】",
		"lng": 118.619102,
		"lat": 24.73245
	},
	{
		"number": 28,
		"name": "福建省源威涤锦科技有限公司",
		"addres": "福建省长乐市漳港工业区",
		"city": "【福建省】",
		"lng": 119.63189,
		"lat": 25.92448
	},
	{
		"number": 29,
		"name": "福建凯邦锦纶科技有限公司",
		"addres": "福州市长乐区文武砂镇东海村(滨海工业区两港路西侧)",
		"city": "【福建省】",
		"lng": 119.57089,
		"lat": 25.8623
	},
	{
		"number": 30,
		"name": "福建精联科技有限公司",
		"addres": "福州市长乐区空港工业区（文岭片段）",
		"city": "【福建省】",
		"lng": 119.665787,
		"lat": 25.944548
	},
	{
		"number": 31,
		"name": "福建新创锦纶实业有限公司",
		"addres": "福州市长乐区漳港街道门楼村",
		"city": "【福建省】",
		"lng": 119.62208,
		"lat": 25.92005
	},
	{
		"number": 32,
		"name": "福建省长乐市金林生织造有限公司",
		"addres": "长乐市金峰镇第三大道工业区",
		"city": "【福建省】",
		"lng": 119.60564,
		"lat": 25.95939
	},
	{
		"number": 33,
		"name": "福建省长乐市第二棉纺织厂",
		"addres": "长乐市江田镇东郊",
		"city": "【福建省】",
		"lng": 119.589247,
		"lat": 25.8136
	},
	{
		"number": 34,
		"name": "福建金鑫纺织有限公司",
		"addres": "福建省福州市长乐区漳港街道渡桥村808号",
		"city": "【福建省】",
		"lng": 119.590108,
		"lat": 25.948228
	},
	{
		"number": 35,
		"name": "长乐翔茂织造实业有限公司",
		"addres": "福州市长乐区里仁村利歧261-18号",
		"city": "【福建省】",
		"lng": 119.507982,
		"lat": 25.938149
	},
	{
		"number": 36,
		"name": "福建省长乐市立峰纺织有限公司",
		"addres": "长乐市漳港镇漳兴工业区",
		"city": "【福建省】",
		"lng": 119.5934,
		"lat": 25.95167
	},
	{
		"number": 37,
		"name": "福建经纬集团有限公司",
		"addres": "福州市长乐区金峰镇六林村判院333号",
		"city": "【福建省】",
		"lng": 119.5896,
		"lat": 25.94823
	},
	{
		"number": 38,
		"name": "福建省长乐市锦源纺织有限公司",
		"addres": "福州市航空港工业区（长乐市湖南片段）",
		"city": "【福建省】",
		"lng": 119.68429,
		"lat": 25.96441
	},
	{
		"number": 39,
		"name": "福建省长乐市新华源纺织有限公司",
		"addres": "长乐市湖南镇(航空港工业集中区鹏程路38号)",
		"city": "【福建省】",
		"lng": 119.68596,
		"lat": 25.96568
	},
	{
		"number": 40,
		"name": "福建省天和纺织实业有限公司",
		"addres": "福州市航空港工业区（文岭片段）",
		"city": "【福建省】",
		"lng": 119.67012,
		"lat": 25.94726
	},
	{
		"number": 41,
		"name": "裕丰源（福建）实业发展有限公司",
		"addres": "福建省长乐市航空港工业区(文岭片段)",
		"city": "【福建省】",
		"lng": 119.67012,
		"lat": 25.94726
	},
	{
		"number": 42,
		"name": "福建省亚新纺织有限公司",
		"addres": "长乐市航空港工业集中区仙昙路以南二期一区3号楼",
		"city": "【福建省】",
		"lng": 119.67012,
		"lat": 25.94726
	},
	{
		"number": 43,
		"name": "福建省百顺纺织实业有限公司",
		"addres": "长乐市两港工业区文武砂段",
		"city": "【福建省】",
		"lng": 119.57433,
		"lat": 25.86767
	},
	{
		"number": 44,
		"name": "长乐市忠航纺织有限公司",
		"addres": "长乐市江田镇友爱村",
		"city": "【福建省】",
		"lng": 119.57608,
		"lat": 25.82681
	},
	{
		"number": 45,
		"name": "福建源嘉轻纺有限公司",
		"addres": "福建省福州市长乐区潭头镇大宏村宏新路666号",
		"city": "【福建省】",
		"lng": 119.601784,
		"lat": 26.0212
	},
	{
		"number": 46,
		"name": "福州市长乐区广丰纺织有限公司",
		"addres": "福州市长乐区金峰镇凤洋村",
		"city": "【福建省】",
		"lng": 119.627635,
		"lat": 25.994484
	},
	{
		"number": 47,
		"name": "福建省长乐市三磊实业有限公司",
		"addres": "长乐市鹤上镇鲤鱼山工业区",
		"city": "【福建省】",
		"lng": 119.53955,
		"lat": 25.94296
	},
	{
		"number": 48,
		"name": "福建金源纺织有限公司",
		"addres": "福州市滨海工业区长乐江田片段",
		"city": "【福建省】",
		"lng": 119.57065,
		"lat": 25.85518
	},
	{
		"number": 49,
		"name": "福建省长乐市华亚纺织有限公司",
		"addres": "长乐市鹤上镇云路村",
		"city": "【福建省】",
		"lng": 119.58503,
		"lat": 25.94578
	},
	{
		"number": 50,
		"name": "福建省长乐金沙港纺织有限公司",
		"addres": "福州市长乐区古槐镇海发路2号",
		"city": "【福建省】",
		"lng": 119.571,
		"lat": 25.86138
	},
	{
		"number": 51,
		"name": "福建省长乐市天梭纺织实业有限公司",
		"addres": "长乐市鹤上镇鹤新路1号",
		"city": "【福建省】",
		"lng": 119.5619,
		"lat": 25.9404
	},
	{
		"number": 52,
		"name": "福建华源纺织有限公司",
		"addres": "福州市长乐区两港工业区（古槐镇仙桥村槐海中路7号）",
		"city": "【福建省】",
		"lng": 119.5758,
		"lat": 25.8567
	},
	{
		"number": 53,
		"name": "福州翔隆纺织有限公司",
		"addres": "长乐区航城街道里仁工业区",
		"city": "【福建省】",
		"lng": 119.5081,
		"lat": 25.978
	},
	{
		"number": 54,
		"name": "福建省长乐市正隆纺织有限公司",
		"addres": "长乐市江田镇友爱工业区（福州市滨海工业区）",
		"city": "【福建省】",
		"lng": 119.5792,
		"lat": 25.8254
	},
	{
		"number": 55,
		"name": "福建省长乐市泰源纺织实业有限公司",
		"addres": "长乐市两港工业区文武砂段",
		"city": "【福建省】",
		"lng": 119.5727,
		"lat": 25.8661
	},
	{
		"number": 56,
		"name": "福建省长乐市永德纺织有限公司",
		"addres": "福州滨海工业区（江田段）",
		"city": "【福建省】",
		"lng": 119.5911,
		"lat": 25.8133
	},
	{
		"number": 57,
		"name": "长乐佳纶纺织实业有限公司",
		"addres": "长乐市金峰镇胪峰大道佛塔洋工业区",
		"city": "【福建省】",
		"lng": 119.6373,
		"lat": 25.9863
	},
	{
		"number": 58,
		"name": "福建省长乐市金磊纺织有限公司",
		"addres": "福州市长乐区航城街道里仁村利岐261-10号",
		"city": "【福建省】",
		"lng": 119.5046,
		"lat": 25.9725
	},
	{
		"number": 59,
		"name": "福建省长乐市同昇纺织有限公司",
		"addres": "福建省福州市长乐区鹤上镇新览村路下17号",
		"city": "【福建省】",
		"lng": 119.5628,
		"lat": 25.9406
	},
	{
		"number": 60,
		"name": "福建省长乐市正鑫纺织有限公司",
		"addres": "福州市长乐区滨海新城江田片区工业区路7号",
		"city": "【福建省】",
		"lng": 119.5912,
		"lat": 25.8155
	},
	{
		"number": 61,
		"name": "长乐科达针纺有限公司",
		"addres": "长乐市江田工业区",
		"city": "【福建省】",
		"lng": 119.5991,
		"lat": 25.8094
	},
	{
		"number": 62,
		"name": "福建省长源纺织有限公司",
		"addres": "福州长乐市空港工业区州长乐市空港工业区",
		"city": "【福建省】",
		"lng": 119.9837,
		"lat": 31.7042
	},
	{
		"number": 63,
		"name": "福建省长乐市星艺毛纺有限公司",
		"addres": "福建省福州市长乐区江田镇江田村工业区路5号",
		"city": "【福建省】",
		"lng": 119.5938,
		"lat": 25.8162
	},
	{
		"number": 64,
		"name": "福建省长乐利德纺织有限公司",
		"addres": "福州市长乐市鹤上镇路北村",
		"city": "【福建省】",
		"lng": 119.541,
		"lat": 25.932
	},
	{
		"number": 65,
		"name": "福建省长乐市恒源纺织有限公司",
		"addres": "福建省福州市长乐区闽江口工业区(航城街道洋屿村文明路2号)",
		"city": "【福建省】",
		"lng": 119.5077,
		"lat": 25.9937
	},
	{
		"number": 66,
		"name": "福建省长乐市鼎诚纺织实业有限公司",
		"addres": "福州市空港工业集中区（长乐市漳港片段）",
		"city": "【福建省】",
		"lng": 119.6824,
		"lat": 25.9772
	},
	{
		"number": 67,
		"name": "长乐市锐泰纺织有限公司",
		"addres": "福建省福州市长乐市金峰镇兰田村",
		"city": "【福建省】",
		"lng": 119.5983,
		"lat": 25.9588
	},
	{
		"number": 68,
		"name": "福建省长乐市福荣针织有限公司",
		"addres": "长乐市漳港漳兴工业区",
		"city": "【福建省】",
		"lng": 119.6288,
		"lat": 25.9194
	},
	{
		"number": 69,
		"name": "福建省长乐市金丰印染有限公司",
		"addres": "长乐市金峰镇塘下村",
		"city": "【福建省】",
		"lng": 119.6324,
		"lat": 25.9836
	},
	{
		"number": 70,
		"name": "福建省长乐市祥泰印染有限公司",
		"addres": "福州市长乐区湖南镇拓新路1号",
		"city": "【福建省】",
		"lng": 119.6552,
		"lat": 25.9667
	},
	{
		"number": 71,
		"name": "长乐市厚东针织染整有限公司",
		"addres": "福州市长乐区潭头镇厚东村庄上216号",
		"city": "【福建省】",
		"lng": 119.6197,
		"lat": 26.0089
	},
	{
		"number": 72,
		"name": "福建永丰针纺有限公司",
		"addres": "长乐市松下镇垅下村龙纺工业区",
		"city": "【福建省】",
		"lng": 119.5984,
		"lat": 25.7797
	},
	{
		"number": 73,
		"name": "长乐市福华印染有限公司",
		"addres": "福州市长乐区金峰镇华阳前下1号",
		"city": "【福建省】",
		"lng": 119.6167,
		"lat": 25.9717
	},
	{
		"number": 74,
		"name": "福建华茂织染有限公司",
		"addres": "长乐市金峰镇华阳村",
		"city": "【福建省】",
		"lng": 119.611,
		"lat": 25.9607
	},
	{
		"number": 75,
		"name": "福建省长乐市华阳染整有限公司",
		"addres": "长乐市金峰镇华阳村",
		"city": "【福建省】",
		"lng": 119.6079,
		"lat": 25.9588
	},
	{
		"number": 76,
		"name": "福建省长乐市华良染整有限公司",
		"addres": "福州市长乐区金峰镇凤洋村金潭路699号",
		"city": "【福建省】",
		"lng": 119.6314,
		"lat": 25.9949
	},
	{
		"number": 77,
		"name": "福建省长乐市福泰印染有限公司",
		"addres": "福州市长乐区金峰镇凤洋村",
		"city": "【福建省】",
		"lng": 119.6314,
		"lat": 25.9949
	},
	{
		"number": 78,
		"name": "福建省长乐市新港印染有限公司",
		"addres": "福州市长乐区金峰镇凤洋村港口684号",
		"city": "【福建省】",
		"lng": 119.6314,
		"lat": 25.9949
	},
	{
		"number": 79,
		"name": "福建力特隆纺织印染有限公司",
		"addres": "福州市长乐区金峰镇凤洋村(福建省长乐市凤洋印染厂内)",
		"city": "【福建省】",
		"lng": 119.6298,
		"lat": 25.9958
	},
	{
		"number": 80,
		"name": "福建省长乐市华鹤印染有限公司",
		"addres": "长乐市金峰镇华阳村官路边",
		"city": "【福建省】",
		"lng": 119.6087786637,
		"lat": 25.9625711902
	},
	{
		"number": 81,
		"name": "福建省长乐市前夏针织印染有限公司",
		"addres": "长乐区金峰镇华阳村",
		"city": "【福建省】",
		"lng": 119.611,
		"lat": 25.9607
	},
	{
		"number": 82,
		"name": "福州华冠针纺织品有限公司",
		"addres": "长乐市松下镇首祉村",
		"city": "【福建省】",
		"lng": 119.6029,
		"lat": 25.7628
	},
	{
		"number": 83,
		"name": "福建省长乐市富平印染有限公司",
		"addres": "福建省福州市长乐区金峰镇华阳村",
		"city": "【福建省】",
		"lng": 119.611,
		"lat": 25.9607
	},
	{
		"number": 84,
		"name": "福建省长乐市金林恩印染有限公司",
		"addres": "福建省福州市长乐区金峰镇前林村工业区",
		"city": "【福建省】",
		"lng": 119.6166,
		"lat": 25.9674
	},
	{
		"number": 85,
		"name": "长乐联丰染整有限公司",
		"addres": "福州市滨海工业区",
		"city": "【福建省】",
		"lng": 119.5984,
		"lat": 25.7471
	},
	{
		"number": 86,
		"name": "福州新发隆针织印染有限公司",
		"addres": "长乐区金峰镇厚凤工业区",
		"city": "【福建省】",
		"lng": 119.6122,
		"lat": 25.9753
	},
	{
		"number": 87,
		"name": "福建德运科技股份有限公司",
		"addres": "福州市长乐区松下镇垅下村龙江南路97号",
		"city": "【福建省】",
		"lng": 119.5943,
		"lat": 25.7791
	},
	{
		"number": 88,
		"name": "福建省长乐市同源染织有限公司",
		"addres": "福州市长乐区金峰开发区（沟南段）",
		"city": "【福建省】",
		"lng": 119.6258,
		"lat": 25.9701
	},
	{
		"number": 89,
		"name": "长乐力宏染整有限公司",
		"addres": "福建省长乐区漳港街道渡桥村沟东",
		"city": "【福建省】",
		"lng": 119.6254,
		"lat": 25.9242
	},
	{
		"number": 90,
		"name": "长乐市佳联纺织印染有限公司",
		"addres": "长乐市金峰镇凤洋工业小区",
		"city": "【福建省】",
		"lng": 119.6297,
		"lat": 25.9935
	},
	{
		"number": 91,
		"name": "长乐龙泰针纺有限公司",
		"addres": "长乐市松下镇垅下村",
		"city": "【福建省】",
		"lng": 119.5932,
		"lat": 25.7873
	},
	{
		"number": 92,
		"name": "长乐力申针织有限公司",
		"addres": "长乐市江田镇江田村",
		"city": "【福建省】",
		"lng": 119.5787,
		"lat": 25.8258
	},
	{
		"number": 93,
		"name": "长乐隆庆针织有限公司",
		"addres": "长乐市金峰镇凤洋村港口",
		"city": "【福建省】",
		"lng": 119.6267,
		"lat": 25.9938
	},
	{
		"number": 94,
		"name": "福建省长乐市六源针织有限公司",
		"addres": "福州市长乐区潭头镇厚东村祖厅边",
		"city": "【福建省】",
		"lng": 119.6171,
		"lat": 26.0132
	},
	{
		"number": 95,
		"name": "福建伊纺达工纺新材料科技有限公司",
		"addres": "福建省福州市长乐区文岭镇阜山村公婆顶88号",
		"city": "【福建省】",
		"lng": 119.6368,
		"lat": 26.0058
	},
	{
	  "number": 277,
		"name": "福建长乐百龙织造有限公司",
		"addres": "",
		"city": "【福建省】",
		"lng": 119.6026,
		"lat": 25.9314
	},
	{
		"number": 96,
		"name": "长乐龙森源针织有限公司",
		"addres": "福建省长乐市空港工业区漳港片段（福建省长乐市中大针织有限公司内）",
		"city": "【福建省】",
		"lng": 119.6457,
		"lat": 25.9281
	},
	{
		"number": 97,
		"name": "福建省长乐市航洋针织有限公司",
		"addres": "福建省福州市长乐区金峰镇凤洋村许朱400号",
		"city": "【福建省】",
		"lng": 119.62,
		"lat": 25.996
	},
	{
		"number": 98,
		"name": "福建市长乐区同德针纺有限公司",
		"addres": "福州市长乐区江田镇漳坂村工业小区",
		"city": "【福建省】",
		"lng": 119.6557,
		"lat": 25.9293
	},
	{
		"number": 99,
		"name": "福建富宇经编有限公司",
		"addres": "长乐市松下镇垅下村工业区",
		"city": "【福建省】",
		"lng": 119.6003,
		"lat": 25.7808
	},
	{
		"number": 100,
		"name": "长乐鲜花针织有限公司",
		"addres": "长乐市松下镇龙纺工业区",
		"city": "【福建省】",
		"lng": 119.5974,
		"lat": 25.7919
	},
	{
		"number": 101,
		"name": "福建万家丽科技实业有限公司",
		"addres": "长乐市漳港镇路顶工业区",
		"city": "【福建省】",
		"lng": 119.6101926415,
		"lat": 25.9217877782
	},
	{
		"number": 102,
		"name": "福建长乐市福源针织有限公司",
		"addres": "福建省福州市长乐区松下镇首祉村松下大道1号",
		"city": "【福建省】",
		"lng": 119.5639346691,
		"lat": 25.7659482234
	},
	{
		"number": 103,
		"name": "福建宏达纺织有限公司",
		"addres": "长乐市金峰镇佛塔洋工业区",
		"city": "【福建省】",
		"lng": 119.636675015,
		"lat": 25.987169164
	},
	{
		"number": 104,
		"name": "福建省长乐市宇洲纺织有限公司",
		"addres": "福州市长乐区金峰镇佛塔洋工业小区",
		"city": "【福建省】",
		"lng": 119.5808939641,
		"lat": 25.9870280189
	},
	{
		"number": 105,
		"name": "长乐百花纺织有限公司",
		"addres": "福州市长乐区航城街道下朱村大同三路1号",
		"city": "【福建省】",
		"lng": 119.5857313912,
		"lat": 25.9703607927
	},
	{
		"number": 106,
		"name": "福建宝源纺织有限公司",
		"addres": "长乐市松下镇前连村",
		"city": "【福建省】",
		"lng": 119.6057598436,
		"lat": 25.7259959436
	},
	{
		"number": 107,
		"name": "福建省长乐市鹰鸿法针织有限公司",
		"addres": "长乐市文岭阜山村",
		"city": "【福建省】",
		"lng": 119.6296001797,
		"lat": 26.0057413281
	},
	{
		"number": 108,
		"name": "长乐宏盛花边有限公司",
		"addres": "福州空港工业集中区经编园区长乐新宏盛花边有限责任公司内",
		"city": "【福建省】",
		"lng": 119.6273296489,
		"lat": 25.9280183825
	},
	{
		"number": 109,
		"name": "福建省长乐市岱西提花针织品公司",
		"addres": "长乐市潭头镇岱西村",
		"city": "【福建省】",
		"lng": 119.6798772284,
		"lat": 25.9935332956
	},
	{
		"number": 110,
		"name": "长乐光耀针织有限公司",
		"addres": "福建省长乐市潭头镇霞江村",
		"city": "【福建省】",
		"lng": 119.6467635395,
		"lat": 26.0286673543
	},
	{
		"number": 111,
		"name": "福建省长乐市天航针纺有限公司",
		"addres": "福州市空港工业区经编园区（漳港）",
		"city": "【福建省】",
		"lng": 119.5932061238,
		"lat": 25.9275165486
	},
	{
		"number": 112,
		"name": "福建省连盛化纤针织有限公司",
		"addres": "长乐市金峰镇前林村旧厝",
		"city": "【福建省】",
		"lng": 119.59748696,
		"lat": 25.9730671848
	},
	{
		"number": 113,
		"name": "长乐望福针纺有限公司",
		"addres": "福州市长乐区文岭镇阜山村江乾头139号",
		"city": "【福建省】",
		"lng": 119.5852297437,
		"lat": 26.0160989126
	},
	{
		"number": 114,
		"name": "福建省长乐市豪丰纺织有限公司",
		"addres": "福建省福州市长乐区金峰镇六林村大亨555号",
		"city": "【福建省】",
		"lng": 119.6002356411,
		"lat": 25.975047595
	},
	{
		"number": 115,
		"name": "长乐梦翔针织有限公司",
		"addres": "长乐市梅花镇梅新村",
		"city": "【福建省】",
		"lng": 119.5999929171,
		"lat": 26.0192643542
	},
	{
		"number": 116,
		"name": "福州新时代针织有限公司",
		"addres": "长乐市金峰镇后团村蔡朱",
		"city": "【福建省】",
		"lng": 119.6120696783,
		"lat": 25.9647974277
	},
	{
		"number": 117,
		"name": "长乐联达化纤有限公司",
		"addres": "长乐市梅花镇梅新村桃源工业小区",
		"city": "【福建省】",
		"lng": 119.6487737927,
		"lat": 26.0192643542
	},
	{
		"number": 118,
		"name": "福建省长乐市力昂针织有限公司",
		"addres": "长乐市金峰工业区",
		"city": "【福建省】",
		"lng": 119.5983878185,
		"lat": 25.9566203917
	},
	{
		"number": 119,
		"name": "长乐新博雅针织有限公司",
		"addres": "长乐市江田镇漳流村巴头大埕南",
		"city": "【福建省】",
		"lng": 119.6273296489,
		"lat": 25.8411101323
	},
	{
		"number": 120,
		"name": "长乐鑫欣华针纺有限公司",
		"addres": "长乐市文岭镇阜山村",
		"city": "【福建省】",
		"lng": 119.6386098405,
		"lat": 26.0057413281
	},
	{
		"number": 121,
		"name": "福建新星航针织有限公司",
		"addres": "长乐市潭头镇边兰工业园",
		"city": "【福建省】",
		"lng": 119.6441829683,
		"lat": 26.0076614083
	},
	{
		"number": 122,
		"name": "长乐铁牛纺织有限公司",
		"addres": "长乐市滨海工业区江田片段",
		"city": "【福建省】",
		"lng": 119.5625451596,
		"lat": 25.8193649736
	},
	{
		"number": 123,
		"name": "福建晟泰针纺有限公司",
		"addres": "长乐市松下镇首祉村西寨下",
		"city": "【福建省】",
		"lng": 119.6536177927,
		"lat": 25.7777770868
	},
	{
		"number": 124,
		"name": "长乐皇益针织有限公司",
		"addres": "长乐市金峰镇金峰村佛塔洋工业区",
		"city": "【福建省】",
		"lng": 119.6653078583,
		"lat": 25.987169164
	},
	{
		"number": 125,
		"name": "福州市航球针织有限公司",
		"addres": "长乐市金峰凤洋",
		"city": "【福建省】",
		"lng": 119.6051926783,
		"lat": 25.9978457354
	},
	{
		"number": 126,
		"name": "福州市长乐区富盛制衣有限公司",
		"addres": "福建省福州市长乐区湖南镇鹏谢村鹏程路2号",
		"city": "【福建省】",
		"lng": 119.6270831591,
		"lat": 25.9718487257
	},
	{
		"number": 127,
		"name": "福建省长乐市永佳针织有限公司",
		"addres": "福州空港工业区经编园区（长乐漳港片段）",
		"city": "【福建省】",
		"lng": 119.6218655849,
		"lat": 25.9250225486
	},
	{
		"number": 128,
		"name": "福建省长乐市昌龙针织有限公司",
		"addres": "长乐市松下镇垅下村",
		"city": "【福建省】",
		"lng": 119.6653789075,
		"lat": 25.7873394893
	},
	{
		"number": 129,
		"name": "福建东龙针纺有限公司",
		"addres": "长乐市松下镇龙纺工业区",
		"city": "【福建省】",
		"lng": 119.6069456783,
		"lat": 25.7919636481
	},
	{
		"number": 130,
		"name": "福建省长乐市申华针织有限公司",
		"addres": "长乐市漳港镇渡桥村漳兴工业区",
		"city": "【福建省】",
		"lng": 119.5187544955,
		"lat": 25.951396926
	},
	{
		"number": 131,
		"name": "福建省长乐市添利织物有限公司",
		"addres": "长乐市漳港镇王朱村",
		"city": "【福建省】",
		"lng": 119.59748696,
		"lat": 25.9313751945
	},
	{
		"number": 132,
		"name": "福建省长乐市民生针织有限公司",
		"addres": "长乐市金峰镇第三公路工业区",
		"city": "【福建省】",
		"lng": 119.6021778186,
		"lat": 25.9619959951
	},
	{
		"number": 133,
		"name": "福建省长乐市华伟针织有限公司",
		"addres": "长乐市金峰镇华阳村双朱下",
		"city": "【福建省】",
		"lng": 119.613648483,
		"lat": 25.9624394248
	},
	{
		"number": 134,
		"name": "福建省长乐市建欣提花有限公司",
		"addres": "长乐市湖南镇闽鹏村下郑",
		"city": "【福建省】",
		"lng": 119.6487737927,
		"lat": 25.9477174328
	},
	{
		"number": 135,
		"name": "福建省长乐市航锦针织有限公司",
		"addres": "长乐市金峰镇锦凤村沟南",
		"city": "【福建省】",
		"lng": 119.5983878185,
		"lat": 25.9889470189
	},
	{
		"number": 136,
		"name": "福建省长乐市金凤针织有限公司",
		"addres": "福州市长乐区金峰镇凤洋村港口754号",
		"city": "【福建省】",
		"lng": 119.6273296489,
		"lat": 25.9978457354
	},
	{
		"number": 137,
		"name": "福建省长乐市恒利达针织有限公司",
		"addres": "福州市长乐区文岭镇东吴工业区",
		"city": "【福建省】",
		"lng": 119.6386098405,
		"lat": 25.9884000463
	},
	{
		"number": 138,
		"name": "福建省长乐市信达针织有限公司",
		"addres": "长乐市文岭镇东吴村",
		"city": "【福建省】",
		"lng": 119.6441829683,
		"lat": 25.987394256
	},
	{
		"number": 139,
		"name": "福建恒益纺织有限公司",
		"addres": "长乐市两港工业区",
		"city": "【福建省】",
		"lng": 119.5625451596,
		"lat": 25.8542728139
	},
	{
		"number": 140,
		"name": "福建鑫航锦针纺有限公司",
		"addres": "福州市长乐区湖南镇鹏陈村",
		"city": "【福建省】",
		"lng": 119.6536177927,
		"lat": 25.9426244328
	},
	{
		"number": 141,
		"name": "福州长宏新材料有限公司",
		"addres": "福州市长乐区湖南镇鹏程路18号金山空港工业集中区10号厂房",
		"city": "【福建省】",
		"lng": 119.6653078583,
		"lat": 25.9505161087
	},
	{
		"number": 142,
		"name": "长乐荣贵针纺有限公司",
		"addres": "长乐市金峰镇华阳村",
		"city": "【福建省】",
		"lng": 119.6051926783,
		"lat": 25.9630664248
	},
	{
		"number": 143,
		"name": "福建力业针织有限公司",
		"addres": "福建省福州市长乐区金峰镇仙高十连36号",
		"city": "【福建省】",
		"lng": 119.6270831591,
		"lat": 25.9571743825
	},
	{
		"number": 144,
		"name": "长乐华大纺织有限公司",
		"addres": "长乐市漳港镇关湖边",
		"city": "【福建省】",
		"lng": 119.6218655849,
		"lat": 25.926430709
	},
	{
		"number": 145,
		"name": "福州明凯纺织有限公司",
		"addres": "福州市航空港工业集中区标准厂房第90幢一层",
		"city": "【福建省】",
		"lng": 119.6653789075,
		"lat": 25.9318102055
	},
	{
		"number": 146,
		"name": "福州德士达纺织有限公司",
		"addres": "长乐市金峰镇华阳工业区前厦29号",
		"city": "【福建省】",
		"lng": 119.6069456783,
		"lat": 25.9670094248
	},
	{
		"number": 147,
		"name": "长乐金良针织有限公司",
		"addres": "长乐市梅花镇金梅路",
		"city": "【福建省】",
		"lng": 119.5187544955,
		"lat": 25.9673723211
	},
	{
		"number": 148,
		"name": "福建东拓针织有限公司",
		"addres": "福州市长乐区松下镇垅下村垅纺工业区",
		"city": "【福建省】",
		"lng": 119.59748696,
		"lat": 25.7919636481
	},
	{
		"number": 149,
		"name": "长乐康胜针纺有限公司",
		"addres": "长乐市金峰镇塔光村",
		"city": "【福建省】",
		"lng": 119.6021778186,
		"lat": 25.9877320189
	},
	{
		"number": 150,
		"name": "长乐鑫盛达针织有限公司",
		"addres": "福建省长乐市潭头镇厚东村",
		"city": "【福建省】",
		"lng": 119.613648483,
		"lat": 26.0118923958
	},
	{
		"number": 151,
		"name": "福州旭腾针织有限公司",
		"addres": "福建省福州市长乐区金峰镇塔光村前厝235号",
		"city": "【福建省】",
		"lng": 119.6069,
		"lat": 25.9811
	},
	{
		"number": 152,
		"name": "长乐友发纺织有限公司",
		"addres": "长乐市金峰镇凤洋村",
		"city": "【福建省】",
		"lng": 119.6336248381,
		"lat": 25.9956595877
	},
	{
		"number": 153,
		"name": "福建成凌针织有限公司",
		"addres": "福建省长乐市潭头镇厚东工业区",
		"city": "【福建省】",
		"lng": 119.6257988381,
		"lat": 26.0000465877
	},
	{
		"number": 154,
		"name": "长乐众合针织有限公司",
		"addres": "长乐市滨海工业区江田片段",
		"city": "【福建省】",
		"lng": 119.5896651937,
		"lat": 25.8185847243
	},
	{
		"number": 155,
		"name": "福建省长乐市地盐针织有限公司",
		"addres": "长乐市文岭镇东吴工业区",
		"city": "【福建省】",
		"lng": 119.640551157,
		"lat": 26.004413441
	},
	{
		"number": 156,
		"name": "福建省长乐市圣光针织有限公司",
		"addres": "长乐市金峰镇塘下工业区",
		"city": "【福建省】",
		"lng": 119.6340309781,
		"lat": 25.9897507728
	},
	{
		"number": 157,
		"name": "福建省长乐市顺亚针织有限公司",
		"addres": "福州市长乐区文岭镇阜山村工业区",
		"city": "【福建省】",
		"lng": 119.638651157,
		"lat": 26.001683441
	},
	{
		"number": 158,
		"name": "福建省长乐市日升针织有限公司",
		"addres": "福州市长乐区潭头镇厚东村",
		"city": "【福建省】",
		"lng": 120.1225638046,
		"lat": 29.315411104
	},
	{
		"number": 159,
		"name": "福建省长乐市长龙针织有限公司",
		"addres": "长乐市松下镇垅下村龙纺工业小区",
		"city": "【福建省】",
		"lng": 119.6020841749,
		"lat": 25.7884297378
	},
	{
		"number": 160,
		"name": "福建省长乐市康尔达织造有限公司",
		"addres": "长乐市航城镇里仁工业区",
		"city": "【福建省】",
		"lng": 119.5057636181,
		"lat": 25.9743468903
	},
	{
		"number": 161,
		"name": "福建省长乐市峰院针织有限公司",
		"addres": "长乐市金峰镇前林村旧厝199号",
		"city": "【福建省】",
		"lng": 119.6065344437,
		"lat": 25.9703889999
	},
	{
		"number": 162,
		"name": "福建省长乐市永冠纺织有限公司",
		"addres": "长乐市金峰镇前林村",
		"city": "【福建省】",
		"lng": 119.69147662,
		"lat": 25.9787978428
	},
	{
		"number": 163,
		"name": "福建省长乐市冠德针纺有限公司",
		"addres": "福州市长乐区鹤上镇岐阳村（峡漳路）派出所左侧",
		"city": "【福建省】",
		"lng": 119.6464289214,
		"lat": 25.9238412082
	},
	{
		"number": 164,
		"name": "福建省长乐市捷敏针纺有限公司",
		"addres": "福建省福州市长乐区鹤上镇云路村郑华南111号",
		"city": "【福建省】",
		"lng": 119.5785258014,
		"lat": 25.9337561215
	},
	{
		"number": 165,
		"name": "福建省长乐市金河针织有限公司",
		"addres": "福建省福州市长乐区金峰镇三星村圆亭224号",
		"city": "【福建省】",
		"lng": 119.6113439437,
		"lat": 25.9779914338
	},
	{
		"number": 166,
		"name": "福建省长乐市鸿源针织有限公司",
		"addres": "福建省福州市长乐区金峰镇凤洋村港口598号",
		"city": "【福建省】",
		"lng": 119.6303399781,
		"lat": 25.9910347728
	},
	{
		"number": 167,
		"name": "福建省长乐市陈氏针纺织实业有限公司",
		"addres": "长乐市航城街道里仁工业区",
		"city": "【福建省】",
		"lng": 120.5004701254,
		"lat": 30.0871466091
	},
	{
		"number": 168,
		"name": "福建省长乐市路威针织有限公司",
		"addres": "福州市长乐区金峰镇佛塔洋工业区金潭路193号",
		"city": "【福建省】",
		"lng": 119.6372761025,
		"lat": 25.9837805461
	},
	{
		"number": 169,
		"name": "福建省长乐市星辉针织有限公司",
		"addres": "长乐市漳港镇王朱村港南路190号",
		"city": "【福建省】",
		"lng": 119.6026135137,
		"lat": 25.9314510625
	},
	{
		"number": 170,
		"name": "长乐市天华针织有限公司",
		"addres": "长乐市金峰镇玉井新村(新教堂后门)",
		"city": "【福建省】",
		"lng": 119.6323711081,
		"lat": 25.9821777812
	},
	{
		"number": 171,
		"name": "长乐市富贵花边针织有限公司",
		"addres": "长乐市金峰镇塔光村东宅",
		"city": "【福建省】",
		"lng": 119.6125739437,
		"lat": 25.9818314338
	},
	{
		"number": 172,
		"name": "福建省长乐市航港针织品有限公司",
		"addres": "福州市长乐区湖南镇鹏谢村鹏程路11号",
		"city": "【福建省】",
		"lng": 119.6532387114,
		"lat": 25.9340436131
	},
	{
		"number": 173,
		"name": "福建前峰针织有限公司",
		"addres": "长乐市金峰镇前林村旧厝",
		"city": "【福建省】",
		"lng": 119.5236793695,
		"lat": 25.7034027275
	},
	{
		"number": 174,
		"name": "长乐市三源针织有限公司",
		"addres": "福州市长乐区文岭镇阜山村",
		"city": "【福建省】",
		"lng": 119.642839157,
		"lat": 25.999597441
	},
	{
		"number": 175,
		"name": "福建省长乐市永盛针纺有限公司",
		"addres": "福州市长乐区金峰镇凤洋村港口",
		"city": "【福建省】",
		"lng": 119.6311199781,
		"lat": 25.9907247728
	},
	{
		"number": 176,
		"name": "长乐市鑫榕提花织造有限公司",
		"addres": "长乐市潭头镇岱西村",
		"city": "【福建省】",
		"lng": 119.5773735058,
		"lat": 25.9889040007
	},
	{
		"number": 177,
		"name": "福建省长乐市金贵针纺织有限公司",
		"addres": "长乐市湖南镇湖滨村",
		"city": "【福建省】",
		"lng": 119.6668492035,
		"lat": 25.9555384027
	},
	{
		"number": 178,
		"name": "福建省长乐市华诚针纺织品有限公司",
		"addres": "长乐市湖南镇鹏陈村",
		"city": "【福建省】",
		"lng": 119.6556052102,
		"lat": 25.9426822211
	},
	{
		"number": 179,
		"name": "福建省长乐市凯利针纺有限公司",
		"addres": "长乐市鹤上镇漳兴工业区",
		"city": "【福建省】",
		"lng": 119.5874428225,
		"lat": 25.9474609022
	},
	{
		"number": 180,
		"name": "福建祥锦实业有限公司",
		"addres": "长乐市湖南镇鹏陈村",
		"city": "【福建省】",
		"lng": 119.6566252102,
		"lat": 25.9421722211
	},
	{
		"number": 181,
		"name": "长乐市顺鑫针织有限公司",
		"addres": "长乐市湖南镇鹏陈村",
		"city": "【福建省】",
		"lng": 119.6546688914,
		"lat": 25.9435125547
	},
	{
		"number": 182,
		"name": "福建省长乐市天美针织有限公司",
		"addres": "长乐市金峰镇首峰村首峰路328号",
		"city": "【福建省】",
		"lng": 119.6095239437,
		"lat": 25.9769714338
	},
	{
		"number": 183,
		"name": "福建省长乐市天阳织造有限公司",
		"addres": "长乐市漳港镇漳兴工业区",
		"city": "【福建省】",
		"lng": 119.5894078225,
		"lat": 25.9491459022
	},
	{
		"number": 184,
		"name": "福建省长乐市鑫星针织有限公司",
		"addres": "福州市长乐区金峰镇三星村菜鬃自然村",
		"city": "【福建省】",
		"lng": 119.6125339437,
		"lat": 25.9794814338
	},
	{
		"number": 185,
		"name": "长乐鸿建针纺有限公司",
		"addres": "福州滨海工业区(首祉片段)",
		"city": "【福建省】",
		"lng": 119.6060198305,
		"lat": 25.7757380247
	},
	{
		"number": 186,
		"name": "长乐鑫荣纺织有限公司",
		"addres": "长乐市漳港镇山边村",
		"city": "【福建省】",
		"lng": 119.6041635137,
		"lat": 25.9306810625
	},
	{
		"number": 187,
		"name": "长乐隆鑫针织有限公司",
		"addres": "长乐市金峰镇首台村台瑶225号",
		"city": "【福建省】",
		"lng": 119.5927079325,
		"lat": 25.9724552628
	},
	{
		"number": 188,
		"name": "长乐瑞峰针纺有限公司",
		"addres": "长乐市松下镇垅下村龙纺工业区",
		"city": "【福建省】",
		"lng": 119.6050698305,
		"lat": 25.7773280247
	},
	{
		"number": 189,
		"name": "长乐江南经编有限公司",
		"addres": "长乐市金峰镇锦凤村沟南38号",
		"city": "【福建省】",
		"lng": 119.6021449681,
		"lat": 25.9835376514
	},
	{
		"number": 190,
		"name": "福建省长乐市金达针纺有限公司",
		"addres": "福建省福州市长乐区漳港街道经编园乐业路38号",
		"city": "【福建省】",
		"lng": 119.6493089214,
		"lat": 25.9229912082
	},
	{
		"number": 191,
		"name": "长乐宏丰针织有限公司",
		"addres": "福州市长乐区松下镇垅下工业区",
		"city": "【福建省】",
		"lng": 119.6074784105,
		"lat": 25.787529198
	},
	{
		"number": 192,
		"name": "福建省长乐市欣美针纺有限公司",
		"addres": "福建省长乐市空港工业区长乐国际机场西侧",
		"city": "【福建省】",
		"lng": 119.6605554702,
		"lat": 25.9344999666
	},
	{
		"number": 193,
		"name": "长乐锦林纺织有限公司",
		"addres": "长乐市航城街道五竹村",
		"city": "【福建省】",
		"lng": 119.5120127181,
		"lat": 25.9922874383
	},
	{
		"number": 194,
		"name": "长乐福顺针织有限公司",
		"addres": "长乐市金峰镇仙高村",
		"city": "【福建省】",
		"lng": 119.6278956981,
		"lat": 25.9582696801
	},
	{
		"number": 195,
		"name": "丰航针纺（福建）有限公司",
		"addres": "长乐市松下镇龙纺工业区",
		"city": "【福建省】",
		"lng": 119.6083654105,
		"lat": 25.787668198
	},
	{
		"number": 196,
		"name": "长乐旺源针织有限公司",
		"addres": "长乐市金峰镇华刘梁边工业区",
		"city": "【福建省】",
		"lng": 119.6138136637,
		"lat": 25.9554101902
	},
	{
		"number": 197,
		"name": "长乐利顺针纺织有限公司",
		"addres": "福建省福州市长乐区金峰镇凤洋村港口760号",
		"city": "【福建省】",
		"lng": 119.6366565025,
		"lat": 25.9892559889
	},
	{
		"number": 198,
		"name": "福建美乐实业有限公司",
		"addres": "长乐市潭头镇厚东村",
		"city": "【福建省】",
		"lng": 119.6167996637,
		"lat": 26.0082858399
	},
	{
		"number": 199,
		"name": "福州盛旺针纺有限公司",
		"addres": "福州市长乐区湖南镇鹏谢村鹏程路2号",
		"city": "【福建省】",
		"lng": 119.6592452102,
		"lat": 25.9357122211
	},
	{
		"number": 200,
		"name": "福建省长乐市华欣针纺有限公司",
		"addres": "长乐市漳兴工业区(鹤上片段)",
		"city": "【福建省】",
		"lng": 119.5831398558,
		"lat": 25.9461128859
	},
	{
		"number": 201,
		"name": "长乐永益针纺有限公司",
		"addres": "长乐市松下镇龙纺工业区",
		"city": "【福建省】",
		"lng": 119.60433,
		"lat": 25.77596
	},
	{
		"number": 202,
		"name": "福建新佳乐花边实业有限公司",
		"addres": "长乐市文岭镇东吴工业区",
		"city": "【福建省】",
		"lng": 119.6361994,
		"lat": 25.98866154
	},
	{
		"number": 203,
		"name": "长乐力盛纺织有限公司",
		"addres": "长乐市漳港镇漳兴工业区",
		"city": "【福建省】",
		"lng": 119.59766714,
		"lat": 25.93533379
	},
	{
		"number": 204,
		"name": "长乐恒华塑胶有限公司",
		"addres": "福建省福州市长乐区航城街道利岐路260号",
		"city": "【福建省】",
		"lng": 119.50591026,
		"lat": 25.9810753
	},
	{
		"number": 205,
		"name": "福建省长乐市鑫艺针纺有限公司",
		"addres": "福州滨海工业区(松下镇首祉)",
		"city": "【福建省】",
		"lng": 119.59895123,
		"lat": 25.75240042
	},
	{
		"number": 206,
		"name": "长乐华宇针纺有限公司",
		"addres": "福州市滨海工业区（松下镇首祉村）",
		"city": "【福建省】",
		"lng": 119.60278926,
		"lat": 25.76034966
	},
	{
		"number": 207,
		"name": "长乐慧星针纺有限公司",
		"addres": "福州市滨海工业区(长乐市松下镇首祉村片段)",
		"city": "【福建省】",
		"lng": 119.59953123,
		"lat": 25.75336042
	},
	{
		"number": 208,
		"name": "长乐永灿针织有限公司",
		"addres": "长乐市文岭镇山边刘村工业区",
		"city": "【福建省】",
		"lng": 119.6551419,
		"lat": 25.98781222
	},
	{
		"number": 209,
		"name": "福建省长乐市俊威净化科技有限公司",
		"addres": "福建省长乐市文岭东吴工业开发区",
		"city": "【福建省】",
		"lng": 119.6331294,
		"lat": 25.99197154
	},
	{
		"number": 210,
		"name": "福建省长乐市胜兴针织有限公司",
		"addres": "长乐市潭头镇厚凤工业区",
		"city": "【福建省】",
		"lng": 119.62634624,
		"lat": 25.99596779
	},
	{
		"number": 211,
		"name": "长乐锦江针织有限公司",
		"addres": "长乐市潭头镇霞江村鲍朱3号",
		"city": "【福建省】",
		"lng": 119.60506483,
		"lat": 26.0249537
	},
	{
		"number": 212,
		"name": "长乐源达针织有限公司",
		"addres": "福州市长乐区金峰镇首台工业区466号",
		"city": "【福建省】",
		"lng": 120.49743104,
		"lat": 30.09020807
	},
	{
		"number": 213,
		"name": "福建省长乐市凯源针纺有限公司",
		"addres": "长乐市江田镇长林村",
		"city": "【福建省】",
		"lng": 119.59411853,
		"lat": 25.79434451
	},
	{
		"number": 214,
		"name": "长乐亿达针纺制品有限公司",
		"addres": "福建省福州市长乐区金峰镇锦凤村凤井1号",
		"city": "【福建省】",
		"lng": 119.5394600418,
		"lat": 25.948269174
	},
	{
		"number": 215,
		"name": "长乐丰亚针纺织有限公司",
		"addres": "福建省福州市文岭镇长乐市龙塘",
		"city": "【福建省】",
		"lng": 119.5771691275,
		"lat": 25.8451411617
	},
	{
		"number": 216,
		"name": "福州市长乐区华圣织造有限公司",
		"addres": "福州市长乐区航空港工业集中区(漳港片段)",
		"city": "【福建省】",
		"lng": 119.6369776392,
		"lat": 25.9323453802
	},
	{
		"number": 217,
		"name": "长乐旭辉针织有限公司",
		"addres": "长乐市潭头镇霞江村",
		"city": "【福建省】",
		"lng": 119.6027078505,
		"lat": 26.0313353543
	},
	{
		"number": 218,
		"name": "长乐新宇针织有限公司",
		"addres": "福建省福州市长乐区松下镇山前村西区123号",
		"city": "【福建省】",
		"lng": 119.5893572852,
		"lat": 25.7090673532
	},
	{
		"number": 219,
		"name": "长乐凯森花边针织有限公司",
		"addres": "福州市空港工业集中区经编园区(漳港片段)",
		"city": "【福建省】",
		"lng": 119.6444915395,
		"lat": 25.9261555486
	},
	{
		"number": 220,
		"name": "福州市长乐区鸿盛针织有限公司",
		"addres": "福州市长乐区潭头镇厚东村存龙片段",
		"city": "【福建省】",
		"lng": 119.6199898646,
		"lat": 26.0046238144
	},
	{
		"number": 221,
		"name": "长乐凤翔纺织有限公司",
		"addres": "长乐市文岭镇东吴村",
		"city": "【福建省】",
		"lng": 119.6384608405,
		"lat": 25.9891670463
	},
	{
		"number": 222,
		"name": "长乐和龙针纺有限公司",
		"addres": "长乐市松下镇垅下工业区",
		"city": "【福建省】",
		"lng": 119.6000546714,
		"lat": 25.7818879637
	},
	{
		"number": 223,
		"name": "长乐兴光针纺有限公司",
		"addres": "福建省福州市长乐区松下镇山前村西区123号",
		"city": "【福建省】",
		"lng": 119.6185374191,
		"lat": 25.9957988503
	},
	{
		"number": 224,
		"name": "福建省长乐市纵横针纺有限公司",
		"addres": "福建省福州市空港工业集中区经编园区(漳港片段)",
		"city": "【福建省】",
		"lng": 119.5721789514,
		"lat": 25.8739774085
	},
	{
		"number": 225,
		"name": "福州市长乐区美源纺织有限公司",
		"addres": "福州市长乐区潭头镇岭南村631号",
		"city": "【福建省】",
		"lng": 119.5951138186,
		"lat": 25.9869750189
	},
	{
		"number": 226,
		"name": "福建永鑫针织有限公司",
		"addres": "福州滨海工业区(首祉片区)",
		"city": "【福建省】",
		"lng": 119.6004494861,
		"lat": 25.7648702234
	},
	{
		"number": 227,
		"name": "福州市长乐区佳荣实业有限公司",
		"addres": "福建省福州市长乐区潭头镇岭南村岭南街630号",
		"city": "【福建省】",
		"lng": 119.5961348185,
		"lat": 25.9865790189
	},
	{
		"number": 228,
		"name": "长乐东城针纺有限公司",
		"addres": "长乐市金峰工业区(后团村)",
		"city": "【福建省】",
		"lng": 119.6306362232,
		"lat": 25.9628554277
	},
	{
		"number": 229,
		"name": "福州市长乐区华逸隆针织有限公司",
		"addres": "福州市长乐区江田镇漳流村流水南区638号",
		"city": "【福建省】",
		"lng": 119.5770919546,
		"lat": 25.8295259403
	},
	{
		"number": 230,
		"name": "福建省长乐市丰裕针纺有限公司",
		"addres": "长乐市潭头镇厚东村",
		"city": "【福建省】",
		"lng": 119.6164228646,
		"lat": 26.0042498144
	},
	{
		"number": 231,
		"name": "福建省长乐市佳鑫针织有限公司",
		"addres": "长乐市空港工业集中区(湖南片段)",
		"city": "【福建省】",
		"lng": 119.6585165717,
		"lat": 25.9401469081
	},
	{
		"number": 232,
		"name": "福建真原花边有限公司",
		"addres": "长乐市金峰工业片区金福路塔光路段",
		"city": "【福建省】",
		"lng": 119.6045215918,
		"lat": 25.9831061436
	},
	{
		"number": 233,
		"name": "长乐市华荣针织有限公司",
		"addres": "长乐市金峰镇六林村",
		"city": "【福建省】",
		"lng": 119.5034747768,
		"lat": 25.9798405707
	},
	{
		"number": 234,
		"name": "福建省长乐市元隆针纺有限公司",
		"addres": "福州市空港工业集中区长乐经编园区(漳港片段)",
		"city": "【福建省】",
		"lng": 119.6444605395,
		"lat": 25.925395548
	},
	{
		"number": 235,
		"name": "福州恒鑫实业有限公司",
		"addres": "福州市滨海工业区(松下片段)",
		"city": "【福建省】",
		"lng": 119.5945548673,
		"lat": 25.757728366
	},
	{
		"number": 236,
		"name": "福建省长乐市冠顺针纺有限公司",
		"addres": "福州市空港工业集中区长乐经编园区(吴航片段)",
		"city": "【福建省】",
		"lng": 119.6470195395,
		"lat": 25.9247615486
	},
	{
		"number": 237,
		"name": "长乐东港纺织有限公司",
		"addres": "福州长乐国际机场路漳港段",
		"city": "【福建省】",
		"lng": 119.593273528,
		"lat": 25.938647068
	},
	{
		"number": 238,
		"name": "长乐聚宜针纺有限公司",
		"addres": "福州长乐空港工业集中区经编园(漳港片段)",
		"city": "【福建省】",
		"lng": 119.6475675395,
		"lat": 25.925783548
	},
	{
		"number": 239,
		"name": "福建新鑫达针纺有限公司",
		"addres": "福建省福州市长乐区文岭镇阜山新村1052号",
		"city": "【福建省】",
		"lng": 119.6511357927,
		"lat": 25.9463354328
	},
	{
		"number": 240,
		"name": "福州市长乐区山城针纺有限公司",
		"addres": "福州市长乐区金峰镇金福路(前厝999号)",
		"city": "【福建省】",
		"lng": 119.6232,
		"lat": 25.9805
	},
	{
		"number": 241,
		"name": "长乐双源针织有限公司",
		"addres": "福州市长乐市玉田琅峰村",
		"city": "【福建省】",
		"lng": 119.4664,
		"lat": 25.9135
	},
	{
		"number": 242,
		"name": "福建纺冠针织有限公司",
		"addres": "福州长乐空港工业区(漳港片段)",
		"city": "【福建省】",
		"lng": 119.6461,
		"lat": 25.9268
	},
	{
		"number": 243,
		"name": "福建美丽丝针纺有限公司",
		"addres": "福建省福州市长乐区漳港街道上墩顶村乐业路39号",
		"city": "【福建省】",
		"lng": 119.6378,
		"lat": 25.9303
	},
	{
		"number": 244,
		"name": "长乐通鑫针织有限公司",
		"addres": "长乐市文岭镇文岭村",
		"city": "【福建省】",
		"lng": 119.6512,
		"lat": 25.997
	},
	{
		"number": 245,
		"name": "福建天桑针纺有限公司",
		"addres": "福州市长乐市文岭镇阜山村工业区",
		"city": "【福建省】",
		"lng": 119.6366,
		"lat": 26.0057
	},
	{
		"number": 246,
		"name": "长乐勇杰针织有限公司",
		"addres": "长乐市漳港镇空港工业集中区",
		"city": "【福建省】",
		"lng": 119.6613,
		"lat": 25.9476
	},
	{
		"number": 247,
		"name": "福建鑫富针纺有限公司",
		"addres": "福州市空港工业集中区(经编园区长乐漳港片段)",
		"city": "【福建省】",
		"lng": 119.6613,
		"lat": 25.9476
	},
	{
		"number": 248,
		"name": "长乐永翔针织有限公司",
		"addres": "长乐市潭头镇厚东村",
		"city": "【福建省】",
		"lng": 119.6136,
		"lat": 26.0118
	},
	{
		"number": 249,
		"name": "长乐鑫和纺织有限公司",
		"addres": "长乐市松下镇首祉村西寨下",
		"city": "【福建省】",
		"lng": 119.5985,
		"lat": 25.7659
	},
	{
		"number": 250,
		"name": "福建省长乐市中大针织有限公司",
		"addres": "长乐市空港工业集中区(漳港片段)",
		"city": "【福建省】",
		"lng": 119.6654,
		"lat": 25.9504
	},
	{
		"number": 251,
		"name": "福州市长乐区伟达针织有限公司",
		"addres": "福州市长乐区空港工业区经编园(漳港街道)",
		"city": "【福建省】",
		"lng": 119.6512389214,
		"lat": 25.9218112082,
		"undefined": ","
	},
	{
		"number": 252,
		"name": "福州力天纺织有限公司",
		"addres": "福州空港工业集中区长乐经编园区(漳港)",
		"city": "【福建省】",
		"lng": 119.3082608686,
		"lat": 26.0581091019,
		"undefined": ","
	},
	{
		"number": 253,
		"name": "长乐新美伦针织有限公司",
		"addres": "福建省长乐市潭头镇厚东村",
		"city": "【福建省】",
		"lng": 119.6197496637,
		"lat": 26.0128158399,
		"undefined": ","
	},
	{
		"number": 254,
		"name": "福建省丽之颖针织有限公司",
		"addres": "长乐市漳港镇空港工业集中区",
		"city": "【福建省】",
		"lng": 119.6517689214,
		"lat": 25.9229012082,
		"undefined": ","
	},
	{
		"number": 255,
		"name": "福建省长乐市宏大针织有限公司",
		"addres": "长乐市空港工业集中区(漳港片段)",
		"city": "【福建省】",
		"lng": 119.5581628967,
		"lat": 25.9213535833,
		"undefined": ","
	},
	{
		"number": 256,
		"name": "福建高氏化织实业有限公司",
		"addres": "福州市空港工业集中区长乐经编园区(漳港片段)",
		"city": "【福建省】",
		"lng": 119.6613028467,
		"lat": 25.9476847901
	},
	{
		"number": 257,
		"name": "福建省长乐市三联针纺有限公司",
		"addres": "长乐市闽江口工业区(营前镇长安片段)",
		"city": "【福建省】",
		"lng": 119.474609219,
		"lat": 25.957573703
	},
	{
		"number": 258,
		"name": "福建省长乐市嘉丰针纺有限公司",
		"addres": "长乐市鹤上镇仙街村",
		"city": "【福建省】",
		"lng": 119.554147372,
		"lat": 25.9486306337
	},
	{
		"number": 259,
		"name": "长乐颖盛电脑绣花有限公司",
		"addres": "长乐市金峰镇塔光村东宅",
		"city": "【福建省】",
		"lng": 119.6092395918,
		"lat": 25.9842241436
	},
	{
		"number": 260,
		"name": "福建昌航针纺有限公司",
		"addres": "福建省福州市长乐区漳港街道上墩顶村乐业路51号",
		"city": "【福建省】",
		"lng": 119.6378513905,
		"lat": 25.9303923825
	},
	{
		"number": 261,
		"name": "福建省长乐市凯翔针纺有限公司",
		"addres": "福州空港工业集中区经编园区(漳港片段)",
		"city": "【福建省】",
		"lng": 119.2865146482,
		"lat": 25.4506822016
	},
	{
		"number": 262,
		"name": "福建力港针纺有限公司",
		"addres": "福州市空港工业集中区经编园区(漳港片段)",
		"city": "【福建省】",
		"lng": 119.295469396,
		"lat": 25.4285035044
	},
	{
		"number": 263,
		"name": "长乐阳光针织有限公司",
		"addres": "福建省福州市长乐市潭头镇后东村",
		"city": "【福建省】",
		"lng": 119.6194358645,
		"lat": 26.0113258143
	},
	{
		"number": 264,
		"name": "福州市长乐区永隆兴盛针纺有限公司",
		"addres": "福建省福州市长乐区古槐镇仙桥村海发路3号",
		"city": "【福建省】",
		"lng": 119.5388059135,
		"lat": 25.8823600385
	},
	{
		"number": 265,
		"name": "福建联丰纺织有限公司",
		"addres": "福州市长乐区松下镇首祉村",
		"city": "【福建省】",
		"lng": 119.5985034861,
		"lat": 25.7659482234
	},
	{
		"number": 266,
		"name": "福建百龙花边织造有限公司",
		"addres": "福州市长乐区松下镇201省道东150米",
		"city": "【福建省】",
		"lng": 119.5958814707,
		"lat": 25.743986643
	},
	{
		"number": 267,
		"name": "福建省长乐区小兴龙针纺有限公司",
		"addres": "松下镇滨海工业区",
		"city": "【福建省】",
		"lng": 119.5984334707,
		"lat": 25.747164643
	},
	{
		"number": 268,
		"name": "长乐昌锦针织有限公司",
		"addres": "福州市长乐区松下镇201省道与G3京台高速交叉口北150米",
		"city": "【福建省】",
		"lng": 119.5920371902,
		"lat": 25.7331056131
	},
	{
		"number": 269,
		"name": "松宇针织纺织有限公司",
		"addres": "福州市长乐区松下镇前连村二区33号",
		"city": "【福建省】",
		"lng": 119.5872568027,
		"lat": 25.7261819436
	},
	{
		"number": 270,
		"name": "山前恩盛针织有限公司",
		"addres": "福州市长乐区松下镇",
		"city": "【福建省】",
		"lng": 119.5956528673,
		"lat": 25.7612633661
	},
	{
		"number": 271,
		"name": "山前恩盛针织有限公司",
		"addres": "福州市长乐区松下镇大祉村",
		"city": "【福建省】",
		"lng": 119.594494553,
		"lat": 25.7285911246
	},
	{
		"number": 272,
		"name": "长乐区永灿针织有限公司",
		"addres": "福州市长乐区文岭镇山边刘村工业区",
		"city": "【福建省】",
		"lng": 119.6532839683,
		"lat": 25.986249256
	},
	{
		"number": 273,
		"name": "长乐忠文针织有限公司",
		"addres": "福建省福州市长乐区S201辅路",
		"city": "【福建省】",
		"lng": 119.6157955849,
		"lat": 25.922392709
	},
	{
		"number": 274,
		"name": "福建同昇纺织有限公司",
		"addres": "福州市长乐区鹤上派出所西侧",
		"city": "【福建省】",
		"lng": 119.560567372,
		"lat": 25.9443226338
	},
	{
		"number": 275,
		"name": "长乐永德纺织有限公司",
		"addres": "福州市长乐区江田镇江田客运站",
		"city": "【福建省】",
		"lng": 119.5853973912,
		"lat": 25.8164189736
	},
	{
		"number": 276,
		"name": "福建省长乐市金林来纺织有限公司",
		"addres": "福州市长乐区会堂路359号",
		"city": "【福建省】",
		"lng": 119.5000370748,
		"lat": 25.9664517927
	}
]